{"type":"FeatureCollection","features":[{"type":"Feature","properties":{"OBJECTID":"1","Match_type":"NCES","Ref_ID":"0","ID1":"Fruit St, Boston, Massachusetts 02114-2696","Id":"98627","SchoolId":"431594","Name":"Massachusetts General Hospital Dietetic Internship","Address":"Fruit St, Boston, Massachusetts 02114","City":"West End","Zipcode":"365190","Contact":"MASS GEN EYE * EAR INF","PhoneNumbe":"(617) 726-2589","YearBuilt":"1899","NumStories":"13","Cost":"106836600","NumStudent":"10","BackupPowe":"0","ShelterCap":" ","Latitude":"42.36259065","Longitude":"-71.07014072","Comment":"0300381001","X":"772340.99986702","Y":"2957450.0000556","CampusHous":" ","NumStudents13":"20","URL":"N/A"},"geometry":{"type":"Point","coordinates":[-71.070141,42.362591]}},{"type":"Feature","properties":{"OBJECTID":"2","Match_type":"NCES & Consortium","Ref_ID":"0","ID1":"8 Ashburton Place, Boston, Massachusetts 02108-27*","Id":"11959","SchoolId":"168005","Name":"Suffolk University","Address":"8 Ashburton Pl Beacon Hill, Boston, Massachusetts 02108","City":"Boston","Zipcode":"149016","Contact":"SUFFOLK UNIVERSITY TRSTS OF","PhoneNumbe":"(617) 573-8000","YearBuilt":"1899","NumStories":"12","Cost":"21673500","NumStudent":"9148","BackupPowe":"0","ShelterCap":" ","Latitude":"42.35890485","Longitude":"-71.0619481","Comment":"0302802001","X":"774562.02593677","Y":"2956118.08441235","NumStudent12":"9101","CampusHous":"21%","NumStudents13":"8675","URL":"http://www.suffolk.edu"},"geometry":{"type":"Point","coordinates":[-71.061948,42.358905]}},{"type":"Feature","properties":{"OBJECTID":"3","Match_type":"NCES & Consortium","Ref_ID":"0","ID1":"41 Berkeley St, Boston, Massachusetts 02116","Id":"16632","SchoolId":"165884","Name":"Benjamin Franklin Institute of Technology","Address":"41 Berkeley St, Boston, Massachusetts 02116","City":"South End","Zipcode":"78750","Contact":"CITY OF BOSTON","PhoneNumbe":"(617) 423-4630","YearBuilt":"1920","NumStories":"4","Cost":"15975800","NumStudent":"594","BackupPowe":"0","ShelterCap":" ","Latitude":"42.34610271","Longitude":"-71.07018646","Comment":"0500688000","X":"772358.91485744","Y":"2951441.41397569","NumStudent12":"472","CampusHous":" ","NumStudents13":"482","URL":"http://www.bfit.edu"},"geometry":{"type":"Point","coordinates":[-71.070186,42.346103]}},{"type":"Feature","properties":{"OBJECTID":"4","Match_type":"NCES & Consortium","Ref_ID":"0","ID1":"250 New Rutherford Ave, Boston, Massachusetts 021*","Id":"1949","SchoolId":"165112","Name":"Bunker Hill Community College","Address":"250 New Rutherford Ave, Boston, Massachusetts 02129","City":"Charlestown","Zipcode":"203509","Contact":"COMMONWEALTH OF MASS","PhoneNumbe":"(617) 228-2000","YearBuilt":"1899","NumStories":"4","Cost":"17181400","NumStudent":"11009","BackupPowe":"0","ShelterCap":" ","Latitude":"42.37511654","Longitude":"-71.06957165","Comment":"0202170000","X":"772471.7597761","Y":"2962015.46664644","NumStudent12":"12934","CampusHous":" ","NumStudents13":"14023","URL":"http://www.bhcc.mass.edu"},"geometry":{"type":"Point","coordinates":[-71.069572,42.375117]}},{"type":"Feature","properties":{"OBJECTID":"5","Match_type":"NCES & Consortium","Ref_ID":"0","ID1":"36 1st Avenue, Boston, Massachusetts 02129-4557","Id":"9109","SchoolId":"166869","Name":"MGH Institute of Health Professions","Address":"36 1st Avenue, Boston, Massachusetts 02129","City":"Charlestown","Zipcode":"70077","Contact":"MGH INSTITUTE OF HEALTH","PhoneNumbe":"(617) 726-3140","YearBuilt":"1899","NumStories":"3.5","Cost":"9386500","NumStudent":"900","BackupPowe":"0","ShelterCap":" ","Latitude":"42.37491705","Longitude":"-71.05397174","Comment":"0203504000","X":"776687.32122685","Y":"2961964.42442569","NumStudent12":"928","CampusHous":" ","NumStudents13":"1096","URL":"http://www.mghihp.edu"},"geometry":{"type":"Point","coordinates":[-71.053972,42.374917]}},{"type":"Feature","properties":{"OBJECTID":"6","Match_type":"NCES & Consortium","Ref_ID":"0","ID1":"400 The Fenway, Boston, Massachusetts 02115","Id":"86640","SchoolId":"165671","Name":"Emmanuel College","Address":"400 Fenway, Massachusetts 02115","City":"Fenway/Kenmore","Zipcode":"52212","Contact":"EMMANUEL COLLEGE TRUSTEES","PhoneNumbe":"(617) 735-9715","YearBuilt":"1899","NumStories":"3","Cost":"99370400","NumStudent":"2454","BackupPowe":"0","ShelterCap":" ","Latitude":"42.34151633","Longitude":"-71.10347795","Comment":"0401847000","X":"763367.00600402","Y":"2949726.45415102","NumStudent12":"2519","CampusHous":"48%","NumStudents13":"2436","URL":"http://www.emmanuel.edu"},"geometry":{"type":"Point","coordinates":[-71.103478,42.341516]}},{"type":"Feature","properties":{"OBJECTID":"7","Match_type":"NCES & Consortium","Ref_ID":"0","ID1":"230 The Fenway, Boston, Massachusetts 02115-5596","Id":"86302","SchoolId":"166984","Name":"School of the Museum of Fine Arts-Boston","Address":"230 The Fenway, Boston, Massachusetts 02115","City":"Fenway/Kenmore","Zipcode":"113496","Contact":"MUSEUM OF FINE ARTS","PhoneNumbe":"(617) 267-6100","YearBuilt":"1987","NumStories":"3","Cost":"8437121","NumStudent":"754","BackupPowe":"0","ShelterCap":" ","Latitude":"42.33853793","Longitude":"-71.09669362","Comment":"0401806000","X":"765206.27693177","Y":"2948649.67087152","NumStudent12":"747","CampusHous":"14%","NumStudents13":"651","URL":"http://www.smfa.edu"},"geometry":{"type":"Point","coordinates":[-71.096694,42.338538]}},{"type":"Feature","properties":{"OBJECTID":"8","Match_type":"NCES & Consortium","Ref_ID":"0","ID1":"300 The Fenway, Boston, Massachusetts 02115-5898","Id":"86125","SchoolId":"167783","Name":"Simmons","Address":"300 Fenway, Boston, Massachusetts 02115","City":"Fenway/Kenmore","Zipcode":"240740","Contact":"SIMMONS COLLEGE","PhoneNumbe":"(617) 521-2000","YearBuilt":"1976","NumStories":"4","Cost":"55553100","NumStudent":"5003","BackupPowe":"0","ShelterCap":" ","Latitude":"42.33918733","Longitude":"-71.0999399","Comment":"0401842000","X":"764327.4965371","Y":"2948882.18812302","NumStudent12":"4829","CampusHous":"75%","NumStudents13":"4900","URL":"http://www.simmons.edu"},"geometry":{"type":"Point","coordinates":[-71.09994,42.339187]}},{"type":"Feature","properties":{"OBJECTID":"9","Match_type":"NCES & Consortium","Ref_ID":"0","ID1":"One Silber Way, Boston, Massachusetts 02215","Id":"15422","SchoolId":"164988","Name":"Boston University","Address":"One Silber Way, Boston, Massachusetts 02215","City":"Fenway/Kenmore","Zipcode":"593154","Contact":"BOSTON UNIVERSITY TRSTS OF","PhoneNumbe":"(617) 353-2000","YearBuilt":"1996","NumStories":"8","Cost":"66943300","NumStudent":"31960","BackupPowe":"0","ShelterCap":" ","Latitude":"42.34955975","Longitude":"-71.09970931","Comment":"0503991000","X":"764372.1007786","Y":"2952662.39119252","NumStudent12":"32439","CampusHous":"74%","NumStudents13":"32411","URL":"http://www.bu.edu"},"geometry":{"type":"Point","coordinates":[-71.099709,42.34956]}},{"type":"Feature","properties":{"OBJECTID":"10","Match_type":"NCES & Consortium","Ref_ID":"0","ID1":"8 the Fenway, Boston, Massachusetts 02215","Id":"22285","SchoolId":"164933","Name":"The Boston Conservatory","Address":"8 Fenway, Boston, Massachusetts 02215","City":"Fenway/Kenmore","Zipcode":"35350","Contact":"BOSTON CONSERVATRY MUSIC","PhoneNumbe":"(617) 536-6340","YearBuilt":"1899","NumStories":"6","Cost":"4900600","NumStudent":"682","BackupPowe":"0","ShelterCap":" ","Latitude":"42.34605822","Longitude":"-71.09001133","Comment":"0401795000","X":"766999.74480152","Y":"2951398.81629185","NumStudent12":"710","CampusHous":"29%","NumStudents13":"774","URL":"http://www.bostonconservatory.edu"},"geometry":{"type":"Point","coordinates":[-71.090011,42.346058]}},{"type":"Feature","properties":{"OBJECTID":"11","Match_type":"NCES","Ref_ID":"0","ID1":"200 Riverway, Boston, Massachusetts 02215-4176","Id":"86683","SchoolId":"168290","Name":"Wheelock College","Address":"200 the Riverway, Boston, Massachusetts 02215","City":"Fenway/Kenmore","Zipcode":"75256","Contact":"WHEELOCK SCHOOL","PhoneNumbe":"(617) 734-5200","YearBuilt":"1925","NumStories":"3","Cost":"11614900","NumStudent":"1055","BackupPowe":"0","ShelterCap":" ","Latitude":"42.34174","Longitude":"-71.10642","Comment":"0402011000","X":"762571.24873727","Y":"2949804.27847044","NumStudent12":"1285","CampusHous":"70%","NumStudents13":"1378","URL":"http://www.wheelock.edu"},"geometry":{"type":"Point","coordinates":[-71.10642,42.34174]}},{"type":"Feature","properties":{"OBJECTID":"12","Match_type":"NCES","Ref_ID":"0","ID1":"1234 Columbus Ave, Roxbury Crossing, Massachusett*","Id":"89176","SchoolId":"167631","Name":"Roxbury Community College","Address":"1234 Columbus Ave, Roxbury Crossing, Massachusetts 02120","City":"Roxbury","Zipcode":"144812","Contact":"BOARD OF REGENTS OF","PhoneNumbe":"(617) 427-0060","YearBuilt":"1986","NumStories":"5","Cost":"30893400","NumStudent":"2749","BackupPowe":"0","ShelterCap":" ","Latitude":"42.32923535","Longitude":"-71.09549441","Comment":"1100029000","X":"765546.5748076","Y":"2945261.17371152","NumStudent12":"2744","CampusHous":" ","NumStudents13":"2437","URL":"http://www.rcc.mass.edu"},"geometry":{"type":"Point","coordinates":[-71.095494,42.329235]}},{"type":"Feature","properties":{"OBJECTID":"13","Match_type":"NCES & Consortium","Ref_ID":"0","ID1":"100 Morrissey Boulevard, Boston, Massachusetts 02*","Id":"91520","SchoolId":"166638","Name":"University of Massachusetts-Boston","Address":"100 Morrissey Blvd, Boston, Massachusetts 02125","City":"North Dorchester","Zipcode":"264200","Contact":"COMMONWEALTH OF MASS","PhoneNumbe":"(617) 287-5000","YearBuilt":"1960","NumStories":"5","Cost":"195575300","NumStudent":"14912","BackupPowe":"0","ShelterCap":" ","Latitude":"42.31380935","Longitude":"-71.03920216","Comment":"1303400000","X":"780798.45473685","Y":"2939716.90461635","NumStudent12":"15741","CampusHous":" ","NumStudents13":"16277","URL":"http://www.umb.edu"},"geometry":{"type":"Point","coordinates":[-71.039202,42.313809]}},{"type":"Feature","properties":{"OBJECTID":"14","Match_type":"Consortium","Ref_ID":"0","Id":"15399","SchoolId":"0","Name":"Boston University Research","Address":"771 Commonwealth Ave","City":"Fenway/Kenmore","Zipcode":"0","Contact":"BOSTON UNIVERSITY TRSTS","PhoneNumbe":"(617)-353-3696","YearBuilt":"0","NumStories":"5","Cost":"1484500","NumStudent":"0","BackupPowe":"0","ShelterCap":" ","Latitude":"42.35083298","Longitude":"-71.10900119","Comment":"2100360000","X":"761858.23671185","Y":"2953114.72952669","NumStudents13":"0"},"geometry":{"type":"Point","coordinates":[-71.109001,42.350833]}},{"type":"Feature","properties":{"OBJECTID":"15","Match_type":"Consortium","Ref_ID":"0","Id":"15400","SchoolId":"0","Name":"Boston University School of Law","Address":"1 University Rd","City":"Fenway/Kenmore","Zipcode":"54767","Contact":"BOSTON UNIVERSITY TRSTS","PhoneNumbe":"(617)-353-9000","YearBuilt":"1931","NumStories":"3","Cost":"5529700","NumStudent":"0","BackupPowe":"0","ShelterCap":" ","Latitude":"42.35116191","Longitude":"-71.10977291","Comment":"2100392000","X":"761649.0845711","Y":"2953233.64333085","NumStudents13":"0","URL":"http://www.bu.edu/law/about/overview.html"},"geometry":{"type":"Point","coordinates":[-71.109773,42.351162]}},{"type":"Feature","properties":{"OBJECTID":"16","Match_type":"Consortium","Ref_ID":"0","Id":"15282","SchoolId":"0","Name":"Boston University Sargent College","Address":"635 Commonwealth Ave","City":"Fenway/Kenmore","Zipcode":"85902","Contact":"BOSTON UNIVERSITY TRS OF","PhoneNumbe":"(617)-353-2711","YearBuilt":"1899","NumStories":"7","Cost":"19403300","NumStudent":"0","BackupPowe":"0","ShelterCap":" ","Latitude":"42.34983461","Longitude":"-71.10204532","Comment":"0504089000","X":"763740.17389285","Y":"2952759.59834719","NumStudents13":"0","URL":"http://www.bu.edu/sargent/about-us/fast-facts/"},"geometry":{"type":"Point","coordinates":[-71.102045,42.349835]}},{"type":"Feature","properties":{"OBJECTID":"17","Match_type":"Consortium","Ref_ID":"0","Id":"16275","SchoolId":"0","Name":"Boston University School of Management","Address":"595 Commonwealth Ave","City":"Fenway/Kenmore","Zipcode":"12908","Contact":"BOSTON UNIVERSITY TRSTS OF","PhoneNumbe":"(617)-353-9720","YearBuilt":"1960","NumStories":"2","Cost":"998700","NumStudent":"0","BackupPowe":"0","ShelterCap":" ","Latitude":"42.34943784","Longitude":"-71.09810862","Comment":"0503981000","X":"764804.99984719","Y":"2952619.9998731","NumStudents13":"0"},"geometry":{"type":"Point","coordinates":[-71.098109,42.349438]}},{"type":"Feature","properties":{"OBJECTID":"18","Match_type":"Consortium","Ref_ID":"0","Id":"16291","SchoolId":"0","Name":"Boston University Admissions","Address":"121 Bay State Rd","City":"Fenway/Kenmore","Zipcode":"13055","Contact":"BOSTON UNIVERSITY TRSTS","PhoneNumbe":"(617)-353-2300","YearBuilt":"1899","NumStories":"4","Cost":"2624800","NumStudent":"0","BackupPowe":"0","ShelterCap":" ","Latitude":"42.350434","Longitude":"-71.09884899","Comment":"0504037000","X":"764603.15773119","Y":"2952982.07460827","NumStudents13":"0"},"geometry":{"type":"Point","coordinates":[-71.098849,42.350434]}},{"type":"Feature","properties":{"OBJECTID":"19","Match_type":"Consortium","Ref_ID":"0","Id":"16267","SchoolId":"0","Name":"Boston University Rental Office","Address":"19 Deerfield Rd","City":"Fenway/Kenmore","Zipcode":"0","Contact":"BOSTON UNIVERSITY TRSTS OF","PhoneNumbe":"(617)-353-4101","YearBuilt":"1925","NumStories":"4","Cost":"82800","NumStudent":"0","BackupPowe":"0","ShelterCap":" ","Latitude":"42.34953999","Longitude":"-71.09701","Comment":"0503757000","X":"765101.79945044","Y":"2952658.62676435","NumStudents13":"0"},"geometry":{"type":"Point","coordinates":[-71.09701,42.34954]}},{"type":"Feature","properties":{"OBJECTID":"20","Match_type":"Consortium","Ref_ID":"0","Id":"84599","SchoolId":"0","Name":"Boston University Trustees","Address":"25 Buick Street","City":"Allston/Brighton","Zipcode":"122743","Contact":"BOSTON UNIVERSITY","PhoneNumbe":"(617)-353-6500","YearBuilt":"1990","NumStories":"3","Cost":"18007000","NumStudent":"0","BackupPowe":"0","ShelterCap":" ","Latitude":"42.35196","Longitude":"-71.11522999","Comment":"2100400000","X":"760172.6761066","Y":"2953517.7795736","NumStudents13":"0"},"geometry":{"type":"Point","coordinates":[-71.11523,42.35196]}},{"type":"Feature","properties":{"OBJECTID":"22","Match_type":"Consortium","Ref_ID":"0","Id":"17534","SchoolId":"0","Name":"Boston University School of Medicine","Address":"85 East Newton St","City":"South End","Zipcode":"262488","Contact":"COMMWLTH OF MASS","PhoneNumbe":"(617)-414-2188","YearBuilt":"1978","NumStories":"10","Cost":"72049800","NumStudent":"0","BackupPowe":"0","ShelterCap":" ","Latitude":"42.33638764","Longitude":"-71.07096966","Comment":"0801408000","X":"772164.99989094","Y":"2947900.00012677","NumStudents13":"0"},"geometry":{"type":"Point","coordinates":[-71.07097,42.336388]}},{"type":"Feature","properties":{"OBJECTID":"23","Match_type":"Consortium","Ref_ID":"0","Id":"17638","SchoolId":"0","Name":"Boston University Public Health","Address":"715 Albany St","City":"South End","Zipcode":"82563","Contact":"BOSTON UNIVERSITY TRSTS OF","PhoneNumbe":"(617)-638-4935","YearBuilt":"1899","NumStories":"5","Cost":"13981647","NumStudent":"0","BackupPowe":"0","ShelterCap":" ","Latitude":"42.33531935","Longitude":"-71.07162395","Comment":"0801418000","X":"771990.05437469","Y":"2947509.80471294","NumStudents13":"0","URL":"http://www.bu.edu/sph/about/busph-at-a-glance/"},"geometry":{"type":"Point","coordinates":[-71.071624,42.335319]}},{"type":"Feature","properties":{"OBJECTID":"24","Match_type":"Consortium","Ref_ID":"0","ID1":" ","Id":"14097","SchoolId":"164924","Name":"Boston College","Address":"140 Commonwealth Avenue, Chestnut Hill, Massachusetts 02467","City":"Chestnut Hill","Contact":" ","PhoneNumbe":" ","YearBuilt":"0","NumStories":" ","Cost":"0","NumStudent":"15036","BackupPowe":"0","ShelterCap":" ","Latitude":"42.33383264","Longitude":"-71.16971925","Comment":" ","X":"745469.51030302","Y":"2946850.06620302","NumStudent12":"14754","CampusHous":" ","NumStudents13":"14309","URL":" "},"geometry":{"type":"Point","coordinates":[-71.169719,42.333833]}},{"type":"Feature","properties":{"OBJECTID":"25","Match_type":"Consortium","Ref_ID":"0","ID1":"300 The Fenway, Boston, Massachusetts 02115-5898","Id":"86676","SchoolId":"0","Name":"Simmons College","Address":"94 Pilgrim Rd.","City":"Fenway/Kenmore","Zipcode":"48601","Contact":"SIMMONS FEMALE COLLEGE","PhoneNumbe":"(617)-521-1101","YearBuilt":"1899","NumStories":"2","Cost":"21821300","NumStudent":"0","BackupPowe":"0","ShelterCap":" ","Latitude":"42.34105034","Longitude":"-71.10589563","Comment":"0402012000","X":"762714.17036744","Y":"2949553.60869619","CampusHous":" ","NumStudents13":"4655"},"geometry":{"type":"Point","coordinates":[-71.105896,42.34105]}},{"type":"Feature","properties":{"OBJECTID":"26","Match_type":"Consortium","Ref_ID":"0","ID1":"Massachusetts Hall, Cambridge, Massachusetts 02138","Id":"98086","SchoolId":"0","Name":"Harvard Medical School","Address":"200 Longwood Ave","City":"Fenway/Kenmore","Zipcode":"67821","Contact":"HARVARD COLLEGE","PhoneNumbe":" ","YearBuilt":"1906","NumStories":"5","Cost":"522739567","NumStudent":"0","BackupPowe":"0","ShelterCap":" ","Latitude":"42.33650088","Longitude":"-71.10247008","Comment":"0401882000","X":"763647.9998646","Y":"2947900.00012677","NumStudent12":"27392","CampusHous":" ","NumStudents13":"1732","URL":"http://www.hms.harvard.edu"},"geometry":{"type":"Point","coordinates":[-71.10247,42.336501]}},{"type":"Feature","properties":{"OBJECTID":"27","Match_type":"Consortium","Ref_ID":"0","ID1":"Medford, Massachusetts 02155-5555","Id":"11753","SchoolId":"0","Name":"Tufts University School of Medicine","Address":"136 Harrison Ave","City":"Chinatown","Zipcode":"133416","Contact":"TUFTS UNIVERSITY TRST","PhoneNumbe":" ","YearBuilt":"1945","NumStories":"8","Cost":"31126800","NumStudent":"0","BackupPowe":"0","ShelterCap":" ","Latitude":"42.3498","Longitude":"-71.06148999","Comment":"0305251000","X":"774702.89868652","Y":"2952800.73901294","NumStudent12":"10777","CampusHous":" ","NumStudents13":"797","URL":" "},"geometry":{"type":"Point","coordinates":[-71.06149,42.3498]}},{"type":"Feature","properties":{"OBJECTID":"28","Match_type":"Consortium","Ref_ID":"0","Id":"86735","SchoolId":"0","Name":"MASCO Colleges of the Fenway","Address":"375 Longwood Ave","City":"Fenway/Kenmore","Zipcode":"399470","Contact":"CONG ADATH ISRAEL OF BOSTON","PhoneNumbe":"(617)-632-2739","YearBuilt":"1991","NumStories":"7","Cost":"37257100","NumStudent":"0","BackupPowe":"0","ShelterCap":" ","Latitude":"42.34004","Longitude":"-71.10830999","Comment":"0401996000","X":"762063.1349241","Y":"2949182.4142286","NumStudents13":"0"},"geometry":{"type":"Point","coordinates":[-71.10831,42.34004]}},{"type":"Feature","properties":{"OBJECTID":"29","Match_type":"Consortium","Ref_ID":"0","Id":"79838","SchoolId":"0","Name":"Harvard University Sailing","Address":"Harvard Way","City":"Allston/Brighton","Contact":"HARVARD COLLEGE","PhoneNumbe":"(617)-495-3434","YearBuilt":"0","NumStories":" ","Cost":"831000","NumStudent":"0","BackupPowe":"0","ShelterCap":" ","Latitude":"42.3664324","Longitude":"-71.1229264","Comment":"2200530001","X":"758068.9814951","Y":"2958782.53512019","NumStudents13":"0"},"geometry":{"type":"Point","coordinates":[-71.122926,42.366432]}},{"type":"Feature","properties":{"OBJECTID":"30","Match_type":"Consortium","Ref_ID":"0","Id":"79841","SchoolId":"0","Name":"Harvard Business School","Address":"Soldiers Field Rd","City":"Allston/Brighton","Zipcode":"92340","Contact":"HARVARD COLLEGE","PhoneNumbe":" ","YearBuilt":"1975","NumStories":"3","Cost":"26812300","NumStudent":"0","BackupPowe":"0","ShelterCap":" ","Latitude":"42.36522699","Longitude":"-71.12005612","Comment":"2200480000","X":"758846.61412619","Y":"2958346.6990496","CampusHous":" ","NumStudents13":"913","URL":"http://www.hbs.edu"},"geometry":{"type":"Point","coordinates":[-71.120056,42.365227]}},{"type":"Feature","properties":{"OBJECTID":"31","Match_type":"NCES & Consortium","Ref_ID":"0","ID1":"10 High St Ste 204, Boston, Massachusetts 02110","Id":"12255","SchoolId":"164438","Name":"New England College of Business and Finance","Address":"10 High St, Boston, Massachusetts 02110","City":"Financial District","Zipcode":"127396","Contact":"POWER JOHN F","PhoneNumbe":"(617) 951-2350","YearBuilt":"1920","NumStories":"11","Cost":"12889200","NumStudent":"765","BackupPowe":"0","ShelterCap":" ","Latitude":"42.35353","Longitude":"-71.05673","Comment":"0304211000","X":"775982.52670469","Y":"2954166.6719766","NumStudent12":"1319","CampusHous":" ","NumStudents13":"1145","URL":"http://www.finance.edu"},"geometry":{"type":"Point","coordinates":[-71.05673,42.35353]}},{"type":"Feature","properties":{"OBJECTID":"32","Match_type":"NCES","Ref_ID":"0","ID1":"150 North Street, Boston, Massachusetts 02109","Id":"9019","SchoolId":"167297","Name":"North Bennet Street School","Address":"39 North Bennet St, Boston, Massachusetts 02113","City":"North End","Zipcode":"33790","Contact":"NO BENNETT ST IND SCHL","PhoneNumbe":"(617) 227-0155","YearBuilt":"1899","NumStories":"4","Cost":"5845800","NumStudent":"144","BackupPowe":"0","ShelterCap":" ","Latitude":"42.36589","Longitude":"-71.05478","Comment":"0302292000","X":"776486.09590752","Y":"2958673.64065294","NumStudent12":"151","CampusHous":" ","NumStudents13":"161","URL":"http://www.nbss.org"},"geometry":{"type":"Point","coordinates":[-71.05478,42.36589]}},{"type":"Feature","properties":{"OBJECTID":"33","Match_type":"NCES","Ref_ID":"0","Id":"12435","SchoolId":"164845","Name":"Empire Beauty School-Boston","Address":"30 West Street, Boston, Massachusetts 02111","City":"Financial District","Zipcode":"25175","Contact":"CHENG HUNG TS","PhoneNumbe":" ","YearBuilt":"1899","NumStories":"5","Cost":"1618800","NumStudent":"205","BackupPowe":"0","ShelterCap":" ","Latitude":"42.35485","Longitude":"-71.06237","Comment":"0304817000","X":"774455.58028352","Y":"2954639.83310377","NumStudent12":"280","CampusHous":" ","NumStudents13":"241","URL":" "},"geometry":{"type":"Point","coordinates":[-71.06237,42.35485]}},{"type":"Feature","properties":{"OBJECTID":"34","Match_type":"NCES & Consortium","Ref_ID":"0","ID1":"178 Tremont St 7th Fl, Boston, Massachusetts 0211*","Id":"11884","SchoolId":"429128","Name":"Urban College of Boston","Address":"178 Tremont St, Boston, Massachusetts 02111","City":"Financial District","Zipcode":"63096","Contact":"ACTION FOR BOSTON COMMUNITY","PhoneNumbe":"(617) 292-4723","YearBuilt":"1899","NumStories":"10","Cost":"4285100","NumStudent":"617","BackupPowe":"0","ShelterCap":" ","Latitude":"42.35288999","Longitude":"-71.06407999","Comment":"0304884000","X":"773997.03165994","Y":"2953923.20461577","NumStudent12":"562","CampusHous":" ","NumStudents13":"762","URL":"http://www.urbancollege.edu"},"geometry":{"type":"Point","coordinates":[-71.06408,42.35289]}},{"type":"Feature","properties":{"OBJECTID":"35","Match_type":"NCES & Consortium","Ref_ID":"0","ID1":"122 Commonwealth Avenue, Boston, Massachusetts 02*","Id":"14049","SchoolId":"164641","Name":"Bay State College","Address":"122 Commonwealth Avenue, Boston, Massachusetts 02116","City":"Back Bay","Zipcode":"10182","Contact":"PFANNENSTIEHL FREDERICK G TS","PhoneNumbe":"(617) 236-8000","YearBuilt":"1899","NumStories":"4","Cost":"832000","NumStudent":"753","BackupPowe":"0","ShelterCap":" ","Latitude":"42.35176999","Longitude":"-71.07694","Comment":"0501353000","X":"770522.99169202","Y":"2953497.55192377","NumStudent12":"1225","CampusHous":"19%","NumStudents13":"1204","URL":"http://www.baystate.edu"},"geometry":{"type":"Point","coordinates":[-71.07694,42.35177]}},{"type":"Feature","properties":{"OBJECTID":"36","Match_type":"NCES","Ref_ID":"0","ID1":" ","Id":"13825","SchoolId":"165149","Name":"Butera School Of Art","Address":"111 Beacon St, Boston, Massachusetts 02116","City":"Back Bay","Zipcode":"8520","Contact":"BUTERA JOSEPH L","PhoneNumbe":"(617) 536-4623","YearBuilt":"1899","NumStories":"5","Cost":"594700","NumStudent":"23","BackupPowe":"0","ShelterCap":" ","Latitude":"42.35498","Longitude":"-71.07316","Comment":"0502814000","X":"771538.89189119","Y":"2954672.42851102","CampusHous":" ","NumStudents13":"0","URL":"http://www.buteraschool.com"},"geometry":{"type":"Point","coordinates":[-71.07316,42.35498]}},{"type":"Feature","properties":{"OBJECTID":"37","Match_type":"NCES & Consortium","Ref_ID":"0","ID1":"120 Boylston Street, Boston, Massachusetts 02116-*","Id":"14326","SchoolId":"165662","Name":"Emerson College","Address":"120 Boylston Street, Boston, Massachusetts 02116","City":"Beacon Hill","Zipcode":"0","Contact":"EMERSON COLLEGE","PhoneNumbe":"(617) 824-8500","YearBuilt":"0","NumStories":" ","Cost":"4545500","NumStudent":"4556","BackupPowe":"0","ShelterCap":" ","Latitude":"42.35221938","Longitude":"-71.06573578","Comment":"0500043010","X":"773550.71759194","Y":"2953676.53614585","NumStudent12":"4469","CampusHous":"48%","NumStudents13":"4561","URL":"http://www.emerson.edu"},"geometry":{"type":"Point","coordinates":[-71.065736,42.352219]}},{"type":"Feature","properties":{"OBJECTID":"38","Match_type":"NCES & Consortium","Ref_ID":"0","ID1":"118 Beacon Street, Boston, Massachusetts 02116","Id":"13866","SchoolId":"165802","Name":"Fisher College","Address":"118 Beacon Street, Boston, Massachusetts 02116","City":"Back Bay","Zipcode":"21600","Contact":"FISHER SCHOOL","PhoneNumbe":"(617) 236-8800","YearBuilt":"1899","NumStories":"5","Cost":"280651","NumStudent":"1593","BackupPowe":"0","ShelterCap":" ","Latitude":"42.35525","Longitude":"-71.07414","Comment":"0502574000","X":"771273.51479727","Y":"2954769.4975426","NumStudent12":"1821","CampusHous":"40%","NumStudents13":"1930","URL":"http://www.fisher.edu"},"geometry":{"type":"Point","coordinates":[-71.07414,42.35525]}},{"type":"Feature","properties":{"OBJECTID":"39","Match_type":"NCES & Consortium","Ref_ID":"0","ID1":"126 Newbury Street, Boston, Massachusetts 02116","Id":"14004","SchoolId":"166276","Name":"Sanford-Brown College-Boston","Address":"126 Newbury Street, Boston, Massachusetts 02116","City":"Back Bay","Zipcode":"52830","Contact":"BEEKMAN TOWN HOUSE LLC","PhoneNumbe":"(617) 578-7100","YearBuilt":"1920","NumStories":"6","Cost":"5200400","NumStudent":"158","BackupPowe":"0","ShelterCap":" ","Latitude":"42.351004","Longitude":"-71.076416","Comment":"0501320000","X":"770666.01798077","Y":"2953219.10989535","CampusHous":" ","NumStudents13":"71","URL":"http://www.gibbscollege.com"},"geometry":{"type":"Point","coordinates":[-71.076416,42.351004]}},{"type":"Feature","properties":{"OBJECTID":"40","Match_type":"NCES & Consortium","Ref_ID":"0","ID1":"154 Stuart St, Boston, Massachusetts 02116","Id":"13000","SchoolId":"167215","Name":"New England School of Law","Address":"154 Stuart St, Boston, Massachusetts 02116","City":"Beacon Hill","Zipcode":"65429","Contact":"NEW ENGLAND SCHOOL OF LAW","PhoneNumbe":"(617) 451-0010","YearBuilt":"1899","NumStories":"5","Cost":"8714400","NumStudent":"1096","BackupPowe":"0","ShelterCap":" ","Latitude":"42.35077028","Longitude":"-71.06642451","Comment":"0500077000","X":"773367.23600352","Y":"2953147.51095719","CampusHous":" ","NumStudents13":"964","URL":"http://www.nesl.edu"},"geometry":{"type":"Point","coordinates":[-71.066425,42.35077]}},{"type":"Feature","properties":{"OBJECTID":"41","Match_type":"NCES","Ref_ID":"0","Id":"2262","SchoolId":"167543","Name":"Kaplan Career Institute (Closed)","Address":"570 Rutherford Ave, Charlestown, Massachusetts 02129","City":"Charlestown","Zipcode":"606500","Contact":"HOOD BUSINESS PARK LLC","PhoneNumbe":"(617) 580-4010","YearBuilt":"1920","NumStories":"3","Cost":"16958900","NumStudent":"619","BackupPowe":"0","ShelterCap":" ","Latitude":"42.38101","Longitude":"-71.07244699","Comment":"0202161000","X":"771684.06089219","Y":"2964159.25796252","NumStudents13":"0"},"geometry":{"type":"Point","coordinates":[-71.072447,42.38101]}},{"type":"Feature","properties":{"OBJECTID":"42","Match_type":"NCES & Consortium","Ref_ID":"0","ID1":"320 Newbury Street, Boston, Massachusetts 02115-2*","Id":"15443","SchoolId":"164872","Name":"Boston Architectural College","Address":"320 Newbury Street, Boston, Massachusetts 02115","City":"Back Bay","Zipcode":"42344","Contact":"BOSTON ARCHITECTURAL COLLEGE","PhoneNumbe":"(617) 262-5000","YearBuilt":"1899","NumStories":"6","Cost":"11385900","NumStudent":"1406","BackupPowe":"0","ShelterCap":" ","Latitude":"42.34846","Longitude":"-71.0858","Comment":"0503062000","X":"768133.94299244","Y":"2952279.57010777","NumStudent12":"1215","CampusHous":" ","NumStudents13":"1037","URL":"http://www.the-bac.edu"},"geometry":{"type":"Point","coordinates":[-71.0858,42.34846]}},{"type":"Feature","properties":{"OBJECTID":"43","Match_type":"NCES & Consortium","Ref_ID":"0","ID1":"621 Huntington Ave, Boston, Massachusetts 02115-5*","Id":"86503","SchoolId":"166674","Name":"Massachusetts College of Art and Design","Address":"621 Huntington Ave, Boston, Massachusetts 02115","City":"Fenway/Kenmore","Zipcode":"217791","Contact":"COMMWLTH OF MASS","PhoneNumbe":"(617) 879-7000","YearBuilt":"1900","NumStories":"6","Cost":"65800100","NumStudent":"2422","BackupPowe":"0","ShelterCap":" ","Latitude":"42.33638373","Longitude":"-71.10034042","Comment":"0401841000","X":"764224.00002494","Y":"2947859.99987869","NumStudent12":"2422","CampusHous":"28%","NumStudents13":"2264","URL":"http://www.massart.edu"},"geometry":{"type":"Point","coordinates":[-71.10034,42.336384]}},{"type":"Feature","properties":{"OBJECTID":"44","Match_type":"NCES & Consortium","Ref_ID":"0","ID1":"179 Longwood Ave, Boston, Massachusetts 02115-5896","Id":"86582","SchoolId":"166656","Name":"MCPHS University","Address":"179 Longwood Ave, Boston, Massachusetts 02115","City":"Fenway/Kenmore","Zipcode":"104000","Contact":"MASS COLLEGE OF PHARMACY","PhoneNumbe":"(617) 732-2800","YearBuilt":"1917","NumStories":"4","Cost":"87531900","NumStudent":"4252","BackupPowe":"0","ShelterCap":" ","Latitude":"42.33688","Longitude":"-71.10112","Comment":"0401844000","X":"764012.37872902","Y":"2948039.85975519","NumStudent12":"5327","CampusHous":"17%","NumStudents13":"6548","URL":"http://www.mcp.edu"},"geometry":{"type":"Point","coordinates":[-71.10112,42.33688]}},{"type":"Feature","properties":{"OBJECTID":"45","Match_type":"NCES & Consortium","Ref_ID":"0","ID1":"424 Beacon St, Boston, Massachusetts 02115","Id":"15908","SchoolId":"167093","Name":"New England College of Optometry","Address":"424 Beacon St, Boston, Massachusetts 02115","City":"Back Bay","Zipcode":"17037","Contact":"NEW ENGLAND COLLEGE","PhoneNumbe":"(617) 266-2030","YearBuilt":"1900","NumStories":"5","Cost":"5568600","NumStudent":"467","BackupPowe":"0","ShelterCap":" ","Latitude":"42.35184999","Longitude":"-71.08680999","Comment":"0503507000","X":"767854.93600452","Y":"2953513.62702285","NumStudent12":"475","CampusHous":" ","NumStudents13":"502","URL":"http://www.neco.edu"},"geometry":{"type":"Point","coordinates":[-71.08681,42.35185]}},{"type":"Feature","properties":{"OBJECTID":"46","Match_type":"NCES & Consortium","Ref_ID":"0","ID1":"360 Huntington Ave, Boston, Massachusetts 02115-5*","Id":"23123","SchoolId":"167358","Name":"Northeastern University","Address":"360 Huntington Ave, Boston, Massachusetts 02115","City":"Fenway/Kenmore","Zipcode":"142900","Contact":"NORTHEASTERN UNIVERSITY","PhoneNumbe":"(617) 373-2000","YearBuilt":"1899","NumStories":"3","Cost":"426358800","NumStudent":"27537","BackupPowe":"0","ShelterCap":" ","Latitude":"42.3400479","Longitude":"-71.08889159","Comment":"0402236000","X":"767313.00008052","Y":"2949210.00013144","NumStudent12":"26959","CampusHous":" ","NumStudents13":"8479","URL":"http://www.northeastern.edu"},"geometry":{"type":"Point","coordinates":[-71.088892,42.340048]}},{"type":"Feature","properties":{"OBJECTID":"47","Match_type":"NCES & Consortium","Ref_ID":"0","ID1":"290 Huntington Ave, Boston, Massachusetts 02115-5*","Id":"22925","SchoolId":"167057","Name":"The New England Conservatory of Music","Address":"290 Huntington Ave, Boston, Massachusetts 02115","City":"Fenway/Kenmore","Zipcode":"0","Contact":"NEW ENGLAND CONS OF MUSIC","PhoneNumbe":"(617) 585-1100","YearBuilt":"0","NumStories":"4","Cost":"299000","NumStudent":"785","BackupPowe":"0","ShelterCap":" ","Latitude":"42.34109299","Longitude":"-71.086446","Comment":"0402246000","X":"767972.33307944","Y":"2949594.04890402","NumStudent12":"775","CampusHous":"40%","NumStudents13":"813","URL":"http://www.newenglandconservatory.edu"},"geometry":{"type":"Point","coordinates":[-71.086446,42.341093]}},{"type":"Feature","properties":{"OBJECTID":"48","Match_type":"NCES & Consortium","Ref_ID":"0","ID1":"550 Huntington Ave, Boston, Massachusetts 02115","Id":"86223","SchoolId":"168227","Name":"Wentworth Institute of Technology","Address":"550 Huntington Ave, Boston, Massachusetts 02115","City":"Fenway/Kenmore","Zipcode":"236886","Contact":"WENTWORTH INSTITUTE","PhoneNumbe":"(617) 442-9010","YearBuilt":"1900","NumStories":"3","Cost":"12929600","NumStudent":"3808","BackupPowe":"0","ShelterCap":" ","Latitude":"42.33662","Longitude":"-71.09493999","Comment":"0402024000","X":"765683.71134435","Y":"2947952.98525702","NumStudent12":"3988","CampusHous":"41%","NumStudents13":"4179","URL":"http://www.wit.edu"},"geometry":{"type":"Point","coordinates":[-71.09494,42.33662]}},{"type":"Feature","properties":{"OBJECTID":"49","Match_type":"NCES & Consortium","Ref_ID":"0","ID1":"1140 Boylston St, Boston, Massachusetts 02215","Id":"23134","SchoolId":"164748","Name":"Berklee College of Music","Address":"1140 Boylston St, Boston, Massachusetts 02215","City":"Fenway/Kenmore","Zipcode":"36300","Contact":"M B H ASSOCIATES LPS","PhoneNumbe":"(617) 266-1400","YearBuilt":"1899","NumStories":"6","Cost":"4647300","NumStudent":"4145","BackupPowe":"0","ShelterCap":" ","Latitude":"42.34668904","Longitude":"-71.0890112","Comment":"0401384000","X":"767268.99984044","Y":"2951629.9998846","NumStudent12":"4307","CampusHous":"20%","NumStudents13":"4519","URL":"http://www.berklee.edu"},"geometry":{"type":"Point","coordinates":[-71.089011,42.346689]}},{"type":"Feature","properties":{"OBJECTID":"50","Match_type":"NCES","Ref_ID":"0","Id":"16255","SchoolId":"457013","Name":"Kaplan Career Institute (Closed)","Address":"540 Commonwealth Ave, Boston, Massachusetts 02215","City":"Fenway/Kenmore","Zipcode":"34112","Contact":"SHUBERT FOUNDATION INC","PhoneNumbe":"(617) 695-4103","YearBuilt":"1899","NumStories":"3","Cost":"3854600","NumStudent":"249","BackupPowe":"0","ShelterCap":" ","Latitude":"42.34849199","Longitude":"-71.09672499","Comment":"0503938000","X":"765180.64509327","Y":"2952277.0792991","NumStudent12":"218","NumStudents13":"0"},"geometry":{"type":"Point","coordinates":[-71.096725,42.348492]}},{"type":"Feature","properties":{"OBJECTID":"51","Match_type":"NCES","Ref_ID":"0","ID1":"537 Commonwealth Ave, Boston, Massachusetts 02215","Id":"16296","SchoolId":"167224","Name":"New England School of Photography","Address":"537 Commonwealth Ave, Boston, Massachusetts 02215","City":"Fenway/Kenmore","Zipcode":"16500","Contact":"TRUSTEES OF BOSTON","PhoneNumbe":"(617) 437-1868","YearBuilt":"1923","NumStories":"3","Cost":"452500","NumStudent":"119","BackupPowe":"0","ShelterCap":" ","Latitude":"42.34922","Longitude":"-71.09691999","Comment":"0503755000","X":"765126.67899385","Y":"2952542.12765352","NumStudent12":"98","CampusHous":" ","NumStudents13":"66","URL":"http://www.nesop.com"},"geometry":{"type":"Point","coordinates":[-71.09692,42.34922]}},{"type":"Feature","properties":{"OBJECTID":"52","Match_type":"NCES","Ref_ID":"0","ID1":" ","Id":"98366","SchoolId":"16645201","Name":"Art Institute of Boston at Lesley University","Address":"700 Beacon St, Boston, Massachusetts 02215","City":"Fenway/Kenmore","Zipcode":"37990","Contact":"ART INSTITUTE OF BOSTON","PhoneNumbe":"(617) 585-6600","YearBuilt":"1899","NumStories":"4","Cost":"7212500","NumStudent":"0","BackupPowe":"0","ShelterCap":" ","Latitude":"42.34849999","Longitude":"-71.09936999","Comment":"0504144000","X":"764465.63569652","Y":"2952276.62523177","CampusHous":"27%","NumStudents13":"0","URL":"http://www.aiboston.edu"},"geometry":{"type":"Point","coordinates":[-71.09937,42.3485]}},{"type":"Feature","properties":{"OBJECTID":"53","Match_type":"NCES & Consortium","Ref_ID":"0","ID1":"303 Adams Street, Milton, Massachusetts 02186","Id":"59172","SchoolId":"165264","Name":"Laboure College","Address":"2120 Dorchester Ave, Boston, Massachusetts 02124","City":"South Dorchester","Zipcode":"282494","Contact":"NEW CARITAS CHRISTI HOSPITAL","PhoneNumbe":"(617) 296-8300","YearBuilt":"1899","NumStories":"8","Cost":"51941000","NumStudent":"669","BackupPowe":"0","ShelterCap":" ","Latitude":"42.27739331","Longitude":"-71.0651491","Comment":"1605018000","X":"773848.3141096","Y":"2926409.52178235","NumStudent12":"732","CampusHous":" ","NumStudents13":"698","URL":"http://www.laboure.edu"},"geometry":{"type":"Point","coordinates":[-71.065149,42.277393]}},{"type":"Feature","properties":{"OBJECTID":"54","Match_type":"NCES","Ref_ID":"0","ID1":"1505 Commonwealth Ave, Brighton, Massachusetts 02*","Id":"80906","SchoolId":"167020","Name":"Everest Institute-Brighton","Address":"1505 Commonwealth Ave, Brighton, Massachusetts 02135","City":"Allston/Brighton","Zipcode":"63504","Contact":"COMMEX LLC","PhoneNumbe":"(617) 783-9955","YearBuilt":"1964","NumStories":"5","Cost":"3189600","NumStudent":"700","BackupPowe":"0","ShelterCap":" ","Latitude":"42.34711","Longitude":"-71.14154","Comment":"2101830005","X":"753068.37076144","Y":"2951719.35666127","NumStudent12":"422","CampusHous":" ","NumStudents13":"369","URL":"http://www.bryman-institute.com"},"geometry":{"type":"Point","coordinates":[-71.14154,42.34711]}},{"type":"Feature","properties":{"OBJECTID":"55","Match_type":"NCES","Ref_ID":"0","ID1":"127 Lake Street, Brighton, Massachusetts 02135-38*","Id":"88667","SchoolId":"167677","Name":"Saint John's Seminary","Address":"127 Lake Street, Brighton, Massachusetts 02135","City":"Allston/Brighton","Zipcode":"83600","Contact":"TRUSTEES OF BOSTON COLLEGE","PhoneNumbe":"(617) 254-2610","YearBuilt":"1964","NumStories":"3","Cost":"1265300","NumStudent":"145","BackupPowe":"0","ShelterCap":" ","Latitude":"42.34432295","Longitude":"-71.16304875","Comment":"2205268070","X":"747258.00016435","Y":"2950680.00014419","NumStudent12":"183","CampusHous":"100%","NumStudents13":"192","URL":"http://www.sjs.edu"},"geometry":{"type":"Point","coordinates":[-71.163049,42.344323]}},{"type":"Feature","properties":{"OBJECTID":"57","Match_type":"NCES","Ref_ID":"0","ID1":"400 Heath St, Chestnut Hill, Massachusetts 02467","Id":"90949","SchoolId":"167455","Name":"Pine Manor College","Address":"400 Heath St, Chestnut Hill, Massachusetts 02467","City":"Jamaica Plain","Zipcode":"0","Contact":"BACK OF THE HILL CONDO TRUST","PhoneNumbe":"(617) 731-7000","YearBuilt":"1999","NumStories":"2.0","Cost":"0","NumStudent":"484","BackupPowe":"0","ShelterCap":" ","Latitude":"42.32878999","Longitude":"-71.11021999","Comment":"1001487000","X":"761565.48959394","Y":"2945080.34008369","NumStudent12":"343","CampusHous":"73.5%","NumStudents13":"346","URL":"http://www.pmc.edu"},"geometry":{"type":"Point","coordinates":[-71.11022,42.32879]}},{"type":"Feature","properties":{"OBJECTID":"58","Match_type":"NCES & Consortium","Ref_ID":"0","ID1":"One Wells Avenue, Newton, Massachusetts 02459","Id":"41509","SchoolId":"166717","Name":"Massachusetts School of Professional Psychology","Address":"221 Rivermoor St, Boston, Massachusetts 02132","City":"West Roxbury","Zipcode":"119454","Contact":"CITY OF BOSTON","PhoneNumbe":"(617) 327-6777","YearBuilt":"1975","NumStories":"1","Cost":"5477000","NumStudent":"448","BackupPowe":"0","ShelterCap":" ","Latitude":"42.27889226","Longitude":"-71.18035129","Comment":"2009228000","X":"742669.81314652","Y":"2926817.87332785","NumStudent12":"558","CampusHous":" ","NumStudents13":"652","URL":"http://www.mspp.edu"},"geometry":{"type":"Point","coordinates":[-71.180351,42.278892]}},{"type":"Feature","properties":{"OBJECTID":"59","Match_type":"NCES & Consortium","Ref_ID":"0","ID1":"950 Metropolitan Ave, Boston, Massachusetts 02136*","Id":"62594","SchoolId":"164614","Name":"Boston Baptist College","Address":"950 Metropolitan Ave, Boston, Massachusetts 02136","City":"Hyde Park","Zipcode":"35206","Contact":"BOSTON BAPTIST COLLEGE","PhoneNumbe":"(617) 364-3510","YearBuilt":"1899","NumStories":"3","Cost":"3326900","NumStudent":"147","BackupPowe":"0","ShelterCap":" ","Latitude":"42.25399999","Longitude":"-71.11025999","Comment":"1810945000","X":"761679.20787044","Y":"2917825.67313644","NumStudent12":"103","CampusHous":" ","NumStudents13":"96","URL":"http://www.boston.edu"},"geometry":{"type":"Point","coordinates":[-71.11026,42.254]}},{"type":"Feature","properties":{"OBJECTID":"60","Match_type":" ","Ref_ID":"0","ID1":" ","Id":"164845","SchoolId":"164845","Name":"Blaine The Beauty Career School-Boston","Address":"530 Commonwealth Ave","City":"Boston","Zipcode":"02215","Contact":" ","PhoneNumbe":"(508) 370-7447","YearBuilt":" ","NumStories":" ","Cost":"0","NumStudent":"0","BackupPowe":"0","ShelterCap":" ","Latitude":"0","Longitude":"0","Comment":" ","CampusHous":" ","NumStudents13":"0","URL":"http://www.blainebeautyschools.com"},"geometry":{"type":"Point","coordinates":[0,0]}},{"type":"Feature","properties":{"OBJECTID":"61","Match_type":" ","Ref_ID":"0","ID1":" ","Id":"167543","SchoolId":"167543","Name":"Rets Technical Center","Address":"965 Commonwealth Ave","City":"Boston","Zipcode":"02215","Contact":" ","PhoneNumbe":"(617) 783-1197","YearBuilt":" ","NumStories":" ","Cost":"0","NumStudent":"0","BackupPowe":"0","ShelterCap":" ","Latitude":"0","Longitude":"0","Comment":" ","CampusHous":" ","NumStudents13":"0","URL":"http://www.retstech.com"},"geometry":{"type":"Point","coordinates":[0,0]}},{"type":"Feature","properties":{"OBJECTID":"460","Match_type":" ","Ref_ID":"0","Id":" ","SchoolId":" ","Name":"Harvard University of Public Health","Address":"677 Huntington Ave","City":" ","Zipcode":"02115","Contact":"HARVARD COLLEGE","PhoneNumbe":"(617) 432-1031","YearBuilt":" ","NumStories":"6","Cost":"0","NumStudent":"0","BackupPowe":"0","ShelterCap":" ","Latitude":"0","Longitude":"0","Comment":"0401895001","CampusHous":" ","NumStudents13":"502","URL":"http://www.hsph.harvard.edu/"},"geometry":{"type":"Point","coordinates":[0,0]}}]}